{
"type": "FeatureCollection",
"name": "station",
"crs": { "type": "name", "properties": { "name": "urn:ogc:def:crs:OGC:1.3:CRS84" } },
"features": [
{ "type": "Feature", "properties": { "nom": "LPA Croix-Rousse", "gid": "1" }, "geometry": { "type": "Point", "coordinates": [ 4.833139860859754, 45.781409359390885 ] } },
{ "type": "Feature", "properties": { "nom": "LPA Antonin Poncet", "gid": "2" }, "geometry": { "type": "Point", "coordinates": [ 4.834544952768444, 45.756313707028553 ] } },
{ "type": "Feature", "properties": { "nom": "LPA Berthelot", "gid": "4" }, "geometry": { "type": "Point", "coordinates": [ 4.836693962634191, 45.746265267289509 ] } },
{ "type": "Feature", "properties": { "nom": "LPA Les Halles", "gid": "6" }, "geometry": { "type": "Point", "coordinates": [ 4.850990287422665, 45.762645610219799 ] } },
{ "type": "Feature", "properties": { "nom": "LPA CÃƒÂ©lestins", "gid": "7" }, "geometry": { "type": "Point", "coordinates": [ 4.831884459464768, 45.759838417845764 ] } },
{ "type": "Feature", "properties": { "nom": "LPA Fosse aux Ours", "gid": "8" }, "geometry": { "type": "Point", "coordinates": [ 4.840848895373973, 45.756349029866108 ] } },
{ "type": "Feature", "properties": { "nom": "LPA Gros caillou", "gid": "9" }, "geometry": { "type": "Point", "coordinates": [ 4.833787393841296, 45.774535392852741 ] } },
{ "type": "Feature", "properties": { "nom": "LPA HÃƒÂ´tel de Ville", "gid": "10" }, "geometry": { "type": "Point", "coordinates": [ 4.836907174706687, 45.768373213307513 ] } },
{ "type": "Feature", "properties": { "nom": "LPA Morand", "gid": "11" }, "geometry": { "type": "Point", "coordinates": [ 4.842180410184518, 45.768037142106891 ] } },
{ "type": "Feature", "properties": { "nom": "1, Rue du Lac", "gid": "12" }, "geometry": { "type": "Point", "coordinates": [ 4.854337225760208, 45.759209679157955 ] } },
{ "type": "Feature", "properties": { "nom": "LPA RÃƒÂ©publique", "gid": "13" }, "geometry": { "type": "Point", "coordinates": [ 4.835696368316426, 45.760377792678426 ] } },
{ "type": "Feature", "properties": { "nom": "LPA Saint Antoine", "gid": "14" }, "geometry": { "type": "Point", "coordinates": [ 4.831507721043185, 45.76413207852486 ] } },
{ "type": "Feature", "properties": { "nom": "LPA Saint Georges", "gid": "15" }, "geometry": { "type": "Point", "coordinates": [ 4.826371785922819, 45.758380923391101 ] } },
{ "type": "Feature", "properties": { "nom": "LPA Terreaux", "gid": "16" }, "geometry": { "type": "Point", "coordinates": [ 4.833445127269195, 45.767330523186139 ] } },
{ "type": "Feature", "properties": { "nom": "LPA parc minute Villette", "gid": "17" }, "geometry": { "type": "Point", "coordinates": [ 4.862313114469333, 45.76013944709684 ] } },
{ "type": "Feature", "properties": { "nom": "3b, Boulevard HonorÃƒÂ© de Balzac", "gid": "18" }, "geometry": { "type": "Point", "coordinates": [ 4.884930052826578, 45.754568392764732 ] } },
{ "type": "Feature", "properties": { "nom": "12 rue JoannÃƒÂ¨s Carret", "gid": "19" }, "geometry": { "type": "Point", "coordinates": [ 4.810395120794041, 45.786997136908987 ] } },
{ "type": "Feature", "properties": { "nom": "Gorge de Loup", "gid": "20" }, "geometry": { "type": "Point", "coordinates": [ 4.804903805464739, 45.767033364140651 ] } },
{ "type": "Feature", "properties": { "nom": "2, rue Domer", "gid": "21" }, "geometry": { "type": "Point", "coordinates": [ 4.843519970803346, 45.746565800237327 ] } },
{ "type": "Feature", "properties": { "nom": "97, rue Garibaldi", "gid": "22" }, "geometry": { "type": "Point", "coordinates": [ 4.851119599256754, 45.766396136281926 ] } },
{ "type": "Feature", "properties": { "nom": "10 place du MarÃƒÂ©chal Lyautey", "gid": "23" }, "geometry": { "type": "Point", "coordinates": [ 4.842902765335285, 45.768929927849662 ] } },
{ "type": "Feature", "properties": { "nom": "Oullins pÃƒÂ´le multimodal", "gid": "25" }, "geometry": { "type": "Point", "coordinates": [ 4.814661809581002, 45.717164655014514 ] } },
{ "type": "Feature", "properties": { "nom": "503 rue Vuillerme", "gid": "26" }, "geometry": { "type": "Point", "coordinates": [ 4.817789542453492, 45.735198786713227 ] } },
{ "type": "Feature", "properties": { "nom": "7, Cours de la LibertÃƒÂ©", "gid": "27" }, "geometry": { "type": "Point", "coordinates": [ 4.841961925421544, 45.762921112479837 ] } },
{ "type": "Feature", "properties": { "nom": "Face 50 rue Boileau", "gid": "28" }, "geometry": { "type": "Point", "coordinates": [ 4.848580127548461, 45.771588434521824 ] } },
{ "type": "Feature", "properties": { "nom": "Face 9, Rue Viricel", "gid": "29" }, "geometry": { "type": "Point", "coordinates": [ 4.853166498154324, 45.768215777113248 ] } },
{ "type": "Feature", "properties": { "nom": "Face 28, Avenue de Saxe", "gid": "30" }, "geometry": { "type": "Point", "coordinates": [ 4.844530379732827, 45.766100226802912 ] } },
{ "type": "Feature", "properties": { "nom": "Parc Sergent Blandan", "gid": "31" }, "geometry": { "type": "Point", "coordinates": [ 4.85127170114039, 45.745548862950073 ] } },
{ "type": "Feature", "properties": { "nom": "ThibaudiÃƒÂ¨re \/ JaurÃƒÂ¨s", "gid": "32" }, "geometry": { "type": "Point", "coordinates": [ 4.845348924966452, 45.750243380101011 ] } },
{ "type": "Feature", "properties": { "nom": "Quai du RhÃƒÂ´ne \/ Piscine", "gid": "33" }, "geometry": { "type": "Point", "coordinates": [ 4.838030708255562, 45.752824115223781 ] } },
{ "type": "Feature", "properties": { "nom": "Debourg ENS", "gid": "34" }, "geometry": { "type": "Point", "coordinates": [ 4.836474757229828, 45.730399657197701 ] } },
{ "type": "Feature", "properties": { "nom": "Stalingrad N (Parc TÃƒÂªte d'Or)", "gid": "35" }, "geometry": { "type": "Point", "coordinates": [ 4.859705156009634, 45.779157683256457 ] } },
{ "type": "Feature", "properties": { "nom": "Place GranclÃƒÂ©ment Ouest", "gid": "36" }, "geometry": { "type": "Point", "coordinates": [ 4.890908098468759, 45.758305696071339 ] } },
{ "type": "Feature", "properties": { "nom": "Face au 18 place Tolozan", "gid": "37" }, "geometry": { "type": "Point", "coordinates": [ 4.837599467520716, 45.769459856255217 ] } },
{ "type": "Feature", "properties": { "nom": "4 place Antoine Vollon", "gid": "38" }, "geometry": { "type": "Point", "coordinates": [ 4.827656792622945, 45.755746551634779 ] } },
{ "type": "Feature", "properties": { "nom": "Centre ville", "gid": "39" }, "geometry": { "type": "Point", "coordinates": [ 4.778757028278001, 45.776043663571052 ] } },
{ "type": "Feature", "properties": { "nom": "Rue Charles Biennier", "gid": "40" }, "geometry": { "type": "Point", "coordinates": [ 4.834451104061264, 45.75485983345159 ] } },
{ "type": "Feature", "properties": { "nom": "12, Rue d'Aubigny", "gid": "41" }, "geometry": { "type": "Point", "coordinates": [ 4.863232974179159, 45.76132541065077 ] } },
{ "type": "Feature", "properties": { "nom": "22 rue GrolÃƒÂ©e", "gid": "42" }, "geometry": { "type": "Point", "coordinates": [ 4.836938844816772, 45.760364239407622 ] } },
{ "type": "Feature", "properties": { "nom": "41, Rue Baraban", "gid": "44" }, "geometry": { "type": "Point", "coordinates": [ 4.868584050381016, 45.762465190423221 ] } },
{ "type": "Feature", "properties": { "nom": "148, Cours Gambetta", "gid": "45" }, "geometry": { "type": "Point", "coordinates": [ 4.857709013309979, 45.750286781187192 ] } },
{ "type": "Feature", "properties": { "nom": "175, Rue Duguesclin", "gid": "46" }, "geometry": { "type": "Point", "coordinates": [ 4.848397374947636, 45.763361214744208 ] } },
{ "type": "Feature", "properties": { "nom": "44 boulevard Pinel", "gid": "47" }, "geometry": { "type": "Point", "coordinates": [ 4.896493792814544, 45.748300067441917 ] } },
{ "type": "Feature", "properties": { "nom": "30 rue de Bony", "gid": "48" }, "geometry": { "type": "Point", "coordinates": [ 4.819800670283556, 45.775426039088252 ] } },
{ "type": "Feature", "properties": { "nom": "Face 26 bd des Canuts", "gid": "49" }, "geometry": { "type": "Point", "coordinates": [ 4.828562183438263, 45.777419787576058 ] } },
{ "type": "Feature", "properties": { "nom": "11 nov. \/ Gaston Berger", "gid": "50" }, "geometry": { "type": "Point", "coordinates": [ 4.873975600885916, 45.779190195728823 ] } },
{ "type": "Feature", "properties": { "nom": "Einstein \/ Antonin \/ JB ClÃƒÂ©ment (la Doua)", "gid": "51" }, "geometry": { "type": "Point", "coordinates": [ 4.879203448358286, 45.782509301663211 ] } },
{ "type": "Feature", "properties": { "nom": "Piaton (Tonkin)", "gid": "52" }, "geometry": { "type": "Point", "coordinates": [ 4.867269518306991, 45.774074345767346 ] } },
{ "type": "Feature", "properties": { "nom": "Lenoir (MLIS)", "gid": "53" }, "geometry": { "type": "Point", "coordinates": [ 4.888839571205026, 45.76869376700563 ] } },
{ "type": "Feature", "properties": { "nom": "Servet \/ A France ou Branly (Gratte Ciel )", "gid": "54" }, "geometry": { "type": "Point", "coordinates": [ 4.880296090858092, 45.76903973931956 ] } },
{ "type": "Feature", "properties": { "nom": "Cours de la RÃƒÂ©publique Nord", "gid": "55" }, "geometry": { "type": "Point", "coordinates": [ 4.87374513943653, 45.771681225355309 ] } },
{ "type": "Feature", "properties": { "nom": "Sangnier Nord \/ Totem", "gid": "56" }, "geometry": { "type": "Point", "coordinates": [ 4.874061397954443, 45.763164019779907 ] } },
{ "type": "Feature", "properties": { "nom": "Mairie", "gid": "57" }, "geometry": { "type": "Point", "coordinates": [ 4.909034534140686, 45.734346597760023 ] } },
{ "type": "Feature", "properties": { "nom": "CrÃƒÂ©dit Agricole \/ Berlioz \/ St Didier \/ Lanessan", "gid": "58" }, "geometry": { "type": "Point", "coordinates": [ 4.788488351973712, 45.798819527864339 ] } },
{ "type": "Feature", "properties": { "nom": "Centre Ville", "gid": "59" }, "geometry": { "type": "Point", "coordinates": [ 4.793958417696722, 45.793681578513727 ] } },
{ "type": "Feature", "properties": { "nom": "PÃƒÂ´le d'ÃƒÂ©changes CarrÃƒÂ© de Soie", "gid": "60" }, "geometry": { "type": "Point", "coordinates": [ 4.922186204286984, 45.760801852825089 ] } },
{ "type": "Feature", "properties": { "nom": "Centre", "gid": "61" }, "geometry": { "type": "Point", "coordinates": [ 4.919891532651935, 45.777519351252359 ] } },
{ "type": "Feature", "properties": { "nom": "Provinces \/ Clinique Charcot", "gid": "62" }, "geometry": { "type": "Point", "coordinates": [ 4.797608572385951, 45.741920470974108 ] } },
{ "type": "Feature", "properties": { "nom": "Terminus mÃƒÂ©tro C", "gid": "63" }, "geometry": { "type": "Point", "coordinates": [ 4.834116161972659, 45.786940977921525 ] } },
{ "type": "Feature", "properties": { "nom": "Saint Clair\/ Passerelle", "gid": "64" }, "geometry": { "type": "Point", "coordinates": [ 4.854636635586636, 45.788587597369386 ] } },
{ "type": "Feature", "properties": { "nom": "119, boulevard de la Croix-Rousse", "gid": "65" }, "geometry": { "type": "Point", "coordinates": [ 4.826988360779815, 45.774283194096611 ] } },
{ "type": "Feature", "properties": { "nom": "19 rue Duquesne", "gid": "66" }, "geometry": { "type": "Point", "coordinates": [ 4.843939180634596, 45.772649265084624 ] } },
{ "type": "Feature", "properties": { "nom": "2, rue Thimonnier", "gid": "67" }, "geometry": { "type": "Point", "coordinates": [ 4.82927283756892, 45.767684390506034 ] } },
{ "type": "Feature", "properties": { "nom": "29 rue Paul Chenavard", "gid": "68" }, "geometry": { "type": "Point", "coordinates": [ 4.833073870156618, 45.765806687512914 ] } },
{ "type": "Feature", "properties": { "nom": "Parc Gerland \/ CitÃƒÂ© Scolaire Internationale", "gid": "69" }, "geometry": { "type": "Point", "coordinates": [ 4.826863811314957, 45.726920951238526 ] } },
{ "type": "Feature", "properties": { "nom": "Parilly", "gid": "70" }, "geometry": { "type": "Point", "coordinates": [ 4.887092480456442, 45.718852909460985 ] } },
{ "type": "Feature", "properties": { "nom": "ZAC du ChÃƒÂªne", "gid": "71" }, "geometry": { "type": "Point", "coordinates": [ 4.925443246629066, 45.738673095637679 ] } },
{ "type": "Feature", "properties": { "nom": "Saxe Gambetta", "gid": "72" }, "geometry": { "type": "Point", "coordinates": [ 4.848215246298161, 45.753637586666109 ] } },
{ "type": "Feature", "properties": { "nom": "Albert Thomas", "gid": "73" }, "geometry": { "type": "Point", "coordinates": [ 4.863050593087675, 45.748443750363656 ] } },
{ "type": "Feature", "properties": { "nom": "Centre Ville\/ Mairie", "gid": "74" }, "geometry": { "type": "Point", "coordinates": [ 4.779385744800972, 45.763131219158005 ] } },
{ "type": "Feature", "properties": { "nom": "Tassin centre", "gid": "75" }, "geometry": { "type": "Point", "coordinates": [ 4.778012701624275, 45.763777969807563 ] } },
{ "type": "Feature", "properties": { "nom": "Bron centre", "gid": "76" }, "geometry": { "type": "Point", "coordinates": [ 4.908380431841682, 45.732924973698282 ] } },
{ "type": "Feature", "properties": { "nom": "Colombier-Saugnieu\/AÃƒÂ©roport\/Lyon-Saint ExupÃƒÂ©ry", "gid": "77" }, "geometry": { "type": "Point", "coordinates": [ 5.074262384497274, 45.720873245692836 ] } },
{ "type": "Feature", "properties": { "nom": "La Doua", "gid": "78" }, "geometry": { "type": "Point", "coordinates": [ 4.873030369822189, 45.781492679852583 ] } },
{ "type": "Feature", "properties": { "nom": "Sanofi", "gid": "79" }, "geometry": { "type": "Point", "coordinates": [ 4.845217551598514, 45.727133062007127 ] } },
{ "type": "Feature", "properties": { "nom": "Angle MontÃƒÂ©e de Choulans\/Rue des FossÃƒÂ©s de Trion", "gid": "82" }, "geometry": { "type": "Point", "coordinates": [ 4.813275951285608, 45.757816648655712 ] } },
{ "type": "Feature", "properties": { "nom": "Face au 86 rue Paul Bert", "gid": "83" }, "geometry": { "type": "Point", "coordinates": [ 4.851691494966373, 45.75700631829816 ] } },
{ "type": "Feature", "properties": { "nom": "10, Avenue Lacassagne", "gid": "84" }, "geometry": { "type": "Point", "coordinates": [ 4.863521494801229, 45.756307123203129 ] } },
{ "type": "Feature", "properties": { "nom": "16 quai Joseph Gillet", "gid": "85" }, "geometry": { "type": "Point", "coordinates": [ 4.812720040164984, 45.773218807858811 ] } },
{ "type": "Feature", "properties": { "nom": "48, rue Juliette Recamier", "gid": "86" }, "geometry": { "type": "Point", "coordinates": [ 4.858265607704606, 45.767701171105827 ] } },
{ "type": "Feature", "properties": { "nom": "Rue Marcel MÃƒÂ©rieux", "gid": "87" }, "geometry": { "type": "Point", "coordinates": [ 4.83057881713307, 45.726871429331553 ] } },
{ "type": "Feature", "properties": { "nom": "Face au 3 promenade LÃƒÂ©a et NapolÃƒÂ©on Bullukian", "gid": "88" }, "geometry": { "type": "Point", "coordinates": [ 4.877118424993642, 45.742431055658741 ] } },
{ "type": "Feature", "properties": { "nom": "4, Rue Bellecombe", "gid": "89" }, "geometry": { "type": "Point", "coordinates": [ 4.862938932729817, 45.769773786027727 ] } },
{ "type": "Feature", "properties": { "nom": "102, avenue MarÃƒÂ©chal de Saxe", "gid": "90" }, "geometry": { "type": "Point", "coordinates": [ 4.845828208256792, 45.758995146621949 ] } },
{ "type": "Feature", "properties": { "nom": "Bachut", "gid": "91" }, "geometry": { "type": "Point", "coordinates": [ 4.870521870104811, 45.735968799470193 ] } },
{ "type": "Feature", "properties": { "nom": "5, Place Sathonay", "gid": "92" }, "geometry": { "type": "Point", "coordinates": [ 4.830632198715951, 45.769045756841038 ] } },
{ "type": "Feature", "properties": { "nom": "22-24 rue Dumont d'Urville", "gid": "93" }, "geometry": { "type": "Point", "coordinates": [ 4.836268507358673, 45.779552219039047 ] } },
{ "type": "Feature", "properties": { "nom": "60, rue du PrÃƒÂ©sident Edouard Herriot", "gid": "94" }, "geometry": { "type": "Point", "coordinates": [ 4.834125949920712, 45.762690656569696 ] } },
{ "type": "Feature", "properties": { "nom": "72-76, rue du DauphinÃƒÂ©", "gid": "95" }, "geometry": { "type": "Point", "coordinates": [ 4.868092930426648, 45.752512679844827 ] } },
{ "type": "Feature", "properties": { "nom": "1b, Rue AimÃƒÂ© Boussange", "gid": "96" }, "geometry": { "type": "Point", "coordinates": [ 4.834170271539662, 45.775151271172007 ] } },
{ "type": "Feature", "properties": { "nom": "100b rue Montgolfier", "gid": "97" }, "geometry": { "type": "Point", "coordinates": [ 4.853003804233105, 45.772218463942153 ] } },
{ "type": "Feature", "properties": { "nom": "49 rue du Repos", "gid": "98" }, "geometry": { "type": "Point", "coordinates": [ 4.85292918509817, 45.741161989174699 ] } },
{ "type": "Feature", "properties": { "nom": "Rue Marius Berliet face rue Saint Romain", "gid": "99" }, "geometry": { "type": "Point", "coordinates": [ 4.860315873723016, 45.742073060739784 ] } },
{ "type": "Feature", "properties": { "nom": "Maisons neuves", "gid": "100" }, "geometry": { "type": "Point", "coordinates": [ 4.878427921888601, 45.756469676769484 ] } },
{ "type": "Feature", "properties": { "nom": "LPA Cordeliers", "gid": "102" }, "geometry": { "type": "Point", "coordinates": [ 4.837206389576997, 45.7639482542222 ] } },
{ "type": "Feature", "properties": { "nom": "LPA HÃƒÂ´tel de Ville Villeurbanne", "gid": "103" }, "geometry": { "type": "Point", "coordinates": [ 4.879496697228648, 45.76608322140526 ] } },
{ "type": "Feature", "properties": { "nom": "LPA Saint Jean", "gid": "104" }, "geometry": { "type": "Point", "coordinates": [ 4.829314747510571, 45.761996393833591 ] } },
{ "type": "Feature", "properties": { "nom": "6 cours Albert Thomas", "gid": "105" }, "geometry": { "type": "Point", "coordinates": [ 4.861032606084426, 45.748996584545516 ] } },
{ "type": "Feature", "properties": { "nom": "Face 25, Place Carnot", "gid": "106" }, "geometry": { "type": "Point", "coordinates": [ 4.827238392348541, 45.751600717971897 ] } },
{ "type": "Feature", "properties": { "nom": "Gare de Vaise", "gid": "107" }, "geometry": { "type": "Point", "coordinates": [ 4.804516773008713, 45.779836520249923 ] } },
{ "type": "Feature", "properties": { "nom": "Valmy", "gid": "108" }, "geometry": { "type": "Point", "coordinates": [ 4.805330342343597, 45.774951998115185 ] } },
{ "type": "Feature", "properties": { "nom": "Ambroise Courtois", "gid": "109" }, "geometry": { "type": "Point", "coordinates": [ 4.871048955616723, 45.745242632238352 ] } },
{ "type": "Feature", "properties": { "nom": "Jean JaurÃƒÂ¨s", "gid": "110" }, "geometry": { "type": "Point", "coordinates": [ 4.836530970658703, 45.736377698439654 ] } },
{ "type": "Feature", "properties": { "nom": "Jean MacÃƒÂ©", "gid": "111" }, "geometry": { "type": "Point", "coordinates": [ 4.841475794730454, 45.744174426673212 ] } },
{ "type": "Feature", "properties": { "nom": "Brotteaux", "gid": "112" }, "geometry": { "type": "Point", "coordinates": [ 4.859363305148653, 45.766849429899281 ] } },
{ "type": "Feature", "properties": { "nom": "Saint Just", "gid": "113" }, "geometry": { "type": "Point", "coordinates": [ 4.815869607335168, 45.757059313128089 ] } },
{ "type": "Feature", "properties": { "nom": "Charpennes", "gid": "114" }, "geometry": { "type": "Point", "coordinates": [ 4.864240042197289, 45.770660315322203 ] } },
{ "type": "Feature", "properties": { "nom": "Charlemagne", "gid": "115" }, "geometry": { "type": "Point", "coordinates": [ 4.821137481288444, 45.742903324946596 ] } },
{ "type": "Feature", "properties": { "nom": "Point du Jour", "gid": "116" }, "geometry": { "type": "Point", "coordinates": [ 4.796702177332654, 45.756451374874096 ] } },
{ "type": "Feature", "properties": { "nom": "23-25 rue de la Fraternelle", "gid": "117" }, "geometry": { "type": "Point", "coordinates": [ 4.803936436143411, 45.76776302940015 ] } },
{ "type": "Feature", "properties": { "nom": "Angle rue Charlie Chaplin \/ Boulevard Stalingrad", "gid": "118" }, "geometry": { "type": "Point", "coordinates": [ 4.859324138192083, 45.774643646157791 ] } },
{ "type": "Feature", "properties": { "nom": "Carnot", "gid": "119" }, "geometry": { "type": "Point", "coordinates": [ 4.828483738072736, 45.751531059213974 ] } },
{ "type": "Feature", "properties": { "nom": "Saxe Servient", "gid": "120" }, "geometry": { "type": "Point", "coordinates": [ 4.845735197035488, 45.76036617375545 ] } },
{ "type": "Feature", "properties": { "nom": "20, rue Ornano", "gid": "121" }, "geometry": { "type": "Point", "coordinates": [ 4.825720367008535, 45.771705020805221 ] } },
{ "type": "Feature", "properties": { "nom": "102, rue du PrÃƒÂ©sident Edouard Herriot", "gid": "122" }, "geometry": { "type": "Point", "coordinates": [ 4.833875708988502, 45.758630643884715 ] } },
{ "type": "Feature", "properties": { "nom": "66, Rue de la Villette", "gid": "123" }, "geometry": { "type": "Point", "coordinates": [ 4.861624731475001, 45.758607136042293 ] } },
{ "type": "Feature", "properties": { "nom": "109, Cours Albert Thomas", "gid": "124" }, "geometry": { "type": "Point", "coordinates": [ 4.872586186940628, 45.745155929265636 ] } },
{ "type": "Feature", "properties": { "nom": "19-21, Boulevard EugÃƒÂ¨ne Deruelle", "gid": "125" }, "geometry": { "type": "Point", "coordinates": [ 4.854350532944491, 45.763032692269988 ] } },
{ "type": "Feature", "properties": { "nom": "62, Rue de Bonnel", "gid": "126" }, "geometry": { "type": "Point", "coordinates": [ 4.849277224693077, 45.761843815075693 ] } },
{ "type": "Feature", "properties": { "nom": "5, place Aristide Briand", "gid": "127" }, "geometry": { "type": "Point", "coordinates": [ 4.849443219597425, 45.75333854232548 ] } },
{ "type": "Feature", "properties": { "nom": "39, Avenue du ChÃƒÂ¢teau", "gid": "128" }, "geometry": { "type": "Point", "coordinates": [ 4.886463354964764, 45.749462293540766 ] } },
{ "type": "Feature", "properties": { "nom": "68, rue HÃƒÂ©non", "gid": "129" }, "geometry": { "type": "Point", "coordinates": [ 4.824392685220486, 45.779610918750684 ] } },
{ "type": "Feature", "properties": { "nom": "9-11 rue Artaud", "gid": "130" }, "geometry": { "type": "Point", "coordinates": [ 4.834249338361993, 45.781436553603463 ] } },
{ "type": "Feature", "properties": { "nom": "Face au 81, Rue Joliot Curie", "gid": "131" }, "geometry": { "type": "Point", "coordinates": [ 4.78798619174371, 45.754615893837105 ] } },
{ "type": "Feature", "properties": { "nom": "57, Avenue du Point du Jour", "gid": "132" }, "geometry": { "type": "Point", "coordinates": [ 4.801466688425032, 45.756093411666313 ] } },
{ "type": "Feature", "properties": { "nom": "11 rue Tramassac", "gid": "133" }, "geometry": { "type": "Point", "coordinates": [ 4.825708054971201, 45.760803013122384 ] } },
{ "type": "Feature", "properties": { "nom": "4, Rue de l'Angile", "gid": "134" }, "geometry": { "type": "Point", "coordinates": [ 4.82820316943325, 45.765606648403775 ] } },
{ "type": "Feature", "properties": { "nom": "3 avenue Debourg", "gid": "135" }, "geometry": { "type": "Point", "coordinates": [ 4.826636332429502, 45.731668447332055 ] } },
{ "type": "Feature", "properties": { "nom": "5 rue Chevreul", "gid": "136" }, "geometry": { "type": "Point", "coordinates": [ 4.8368532133064, 45.749838762555797 ] } },
{ "type": "Feature", "properties": { "nom": "Angle rue Chateaubriand\/avenue Jean JaurÃƒÂ¨s", "gid": "137" }, "geometry": { "type": "Point", "coordinates": [ 4.837186880570156, 45.736744026395392 ] } },
{ "type": "Feature", "properties": { "nom": "Face au 4 place Gabriel PÃƒÂ©ri", "gid": "138" }, "geometry": { "type": "Point", "coordinates": [ 4.84346700588036, 45.754856539853265 ] } },
{ "type": "Feature", "properties": { "nom": "7, Avenue Paul Santy", "gid": "139" }, "geometry": { "type": "Point", "coordinates": [ 4.870669996081688, 45.735055755892716 ] } },
{ "type": "Feature", "properties": { "nom": "111-113 boulevard des Etats-Unis", "gid": "140" }, "geometry": { "type": "Point", "coordinates": [ 4.868264223547792, 45.728796634094692 ] } },
{ "type": "Feature", "properties": { "nom": "42 rue Paul Cazeneuve", "gid": "141" }, "geometry": { "type": "Point", "coordinates": [ 4.862833965374763, 45.73428708940768 ] } },
{ "type": "Feature", "properties": { "nom": "14b rue de la Corderie", "gid": "142" }, "geometry": { "type": "Point", "coordinates": [ 4.80430703220639, 45.777167998081069 ] } },
{ "type": "Feature", "properties": { "nom": "50, rue de Saint Cyr", "gid": "143" }, "geometry": { "type": "Point", "coordinates": [ 4.807712615611715, 45.782960130715793 ] } },
{ "type": "Feature", "properties": { "nom": "Face au 2, Route de Genas", "gid": "144" }, "geometry": { "type": "Point", "coordinates": [ 4.875830038819072, 45.754954255875688 ] } },
{ "type": "Feature", "properties": { "nom": "100, Cours Charlemagne", "gid": "145" }, "geometry": { "type": "Point", "coordinates": [ 4.820383850572564, 45.742343659529929 ] } }
]
}
